City_ID,City,Lat,Lng,Max Temp,Humidity,Cloudiness,Wind Speed,Country,Date
0,puerto ayora,-0.7393,-90.3518,26.42,91,9,0.45,EC,1682993847
1,grytviken,-54.2811,-36.5092,-2.8,76,17,4.4,GS,1682993848
2,punta arenas,-53.15,-70.9167,6.06,75,0,18.01,CL,1682993849
3,olonkinbyen,70.9221,-8.7187,-1.76,61,63,3.96,SJ,1682993850
4,invercargill,-46.4,168.35,14.86,69,100,1.84,NZ,1682993851
5,touros,-5.1989,-35.4608,24.93,82,67,3.38,BR,1682993852
6,albany,42.6001,-73.9662,8.23,80,100,1.95,US,1682993669
7,puerto armuelles,8.2833,-82.8667,25.99,81,100,1.17,PA,1682993854
8,iqaluit,63.7506,-68.5145,-1.15,86,100,7.72,CA,1682993672
9,udachny,66.4167,112.4,-6.97,61,100,8.4,RU,1682993857
10,waitangi,-43.9535,-176.5597,16.01,78,97,2.24,NZ,1682993858
11,bredasdorp,-34.5322,20.0403,12.75,74,100,1.89,ZA,1682993859
12,east london,-33.0153,27.9116,16.96,75,96,3.25,ZA,1682993860
13,sao joao da barra,-21.6403,-41.0511,23.02,88,3,1.32,BR,1682993861
14,avarua,-21.2078,-159.775,25.03,69,100,6.69,CK,1682993862
15,binubusan,13.9628,120.6377,31.84,54,47,5.86,PH,1682993863
16,west island,-12.1568,96.8225,27.99,78,40,7.2,CC,1682993865
17,blackmans bay,-43.0167,147.3167,15.07,78,99,1.72,AU,1682993866
18,pergamino,-33.89,-60.5736,10.66,30,40,3.07,AR,1682993867
19,raduzhny,62.0961,77.475,-6.14,80,7,2.59,RU,1682993868
20,longyearbyen,78.2186,15.6401,-15.09,61,20,2.57,SJ,1682993869
21,ulety,51.3572,112.4849,5.74,53,61,8.51,RU,1682993870
22,bethel,41.3712,-73.414,11.2,77,40,1.54,US,1682993822
23,ambazac,45.9598,1.4006,10.18,98,12,1.04,FR,1682993872
24,fabens,31.5023,-106.1586,29.62,25,100,9.19,US,1682993874
25,tofol,5.3248,163.0078,25.88,89,100,1.54,FM,1682993875
26,tiksi,71.6872,128.8694,-5.06,90,100,4.73,RU,1682993876
27,iskateley,67.6803,53.1512,1.63,100,100,7.31,RU,1682993877
28,port-aux-francais,-49.35,70.2167,3.03,69,42,5.22,TF,1682993878
29,yantai,37.5333,121.4,19.78,43,100,7.63,CN,1682993879
30,anadyr,64.75,177.4833,-8.72,78,0,6.0,RU,1682993880
31,rongelap,11.1635,166.8941,27.34,82,29,9.81,MH,1682993881
32,shertallai,9.7,76.3333,25.9,86,100,3.26,IN,1682993884
33,yellowknife,62.456,-114.3525,14.29,44,20,5.14,CA,1682993885
34,la foa,-21.7108,165.8276,28.6,59,10,1.77,NC,1682993886
35,shuangjiang,26.1547,109.7138,21.41,83,100,3.49,CN,1682993887
36,nadym,65.5333,72.5167,-5.31,91,99,5.4,RU,1682993888
37,san antonio de pale,-1.4014,5.6325,27.41,76,100,1.99,GQ,1682993889
38,badger,64.8,-147.5333,13.14,38,75,3.6,US,1682993890
39,tindouf,27.6711,-8.1474,25.25,29,0,5.14,DZ,1682993892
40,papatowai,-46.5619,169.4708,19.79,66,85,4.09,NZ,1682993893
41,oamaru,-45.0784,170.9801,17.99,76,80,6.72,NZ,1682993894
42,hammerfest,70.6634,23.6821,0.25,93,75,6.69,NO,1682993895
43,hithadhoo,-0.6,73.0833,27.06,82,100,6.89,MV,1682993896
44,klyuchi,52.2667,79.1667,2.0,54,9,5.55,RU,1682993897
45,den burg,53.0542,4.7972,8.87,87,100,4.12,NL,1682993898
46,dudinka,69.4058,86.1778,-11.32,89,23,0.38,RU,1682993900
47,owando,-0.4819,15.8999,21.29,97,84,1.26,CG,1682993901
48,katsuren-haebaru,26.3369,127.8719,25.22,53,0,8.23,JP,1682993902
49,iacu,-12.7672,-40.2117,23.22,87,100,1.7,BR,1682993903
50,punch,33.7679,74.0897,14.44,94,100,1.89,IN,1682993904
51,tazovsky,67.4667,78.7,-9.32,99,99,2.41,RU,1682993905
52,kingscliff,-28.2667,153.5667,24.95,43,100,1.54,AU,1682993906
53,port mathurin,-19.6833,63.4167,25.92,77,1,3.38,MU,1682993909
54,sittwe,20.15,92.9,29.41,63,100,2.61,MM,1682993910
55,bilibino,68.0546,166.4372,-5.9,72,42,1.32,RU,1682993911
56,whitehorse,60.7161,-135.0538,10.43,46,75,7.2,CA,1682993912
57,port isabel,26.0734,-97.2086,24.45,81,0,6.17,US,1682993913
58,luderitz,-26.6481,15.1594,13.09,73,0,4.19,NA,1682993914
59,edinburgh of the seven seas,-37.0676,-12.3116,16.08,78,20,7.76,SH,1682993917
60,mogocha,53.7333,119.7667,7.75,64,100,3.85,RU,1682993918
61,adamstown,-25.066,-130.1015,25.53,76,23,6.69,PN,1682993920
62,margaret river,-33.95,115.0667,16.12,59,0,2.72,AU,1682993731
63,stanley,54.868,-1.6985,6.55,92,91,1.22,GB,1682993922
64,saldanha,-33.0117,17.9442,15.23,91,95,3.46,ZA,1682993923
65,aykhal,66.0,111.5,-8.15,91,100,9.32,RU,1682993924
66,watford city,47.8022,-103.2832,12.31,35,0,4.63,US,1682993925
67,ukata,10.8312,5.8249,27.06,52,39,3.95,NG,1682993927
68,tannum sands,-23.9504,151.3693,27.64,38,100,2.06,AU,1682993928
69,lata,40.1629,-8.3327,13.84,78,100,1.28,PT,1682993929
70,mount gambier,-37.8333,140.7667,14.74,77,56,4.56,AU,1682993930
71,ilulissat,69.2167,-51.1,1.01,60,2,4.12,GL,1682993931
72,mount isa,-20.7333,139.5,24.87,25,11,4.12,AU,1682993932
73,undurkhaan,47.3194,110.6556,10.23,35,96,7.08,MN,1682993934
74,thompson,55.7435,-97.8558,9.09,34,20,1.03,CA,1682993935
75,egilsstadir,65.2653,-14.3948,-0.05,69,100,2.06,IS,1682993936
76,mantua,45.1667,10.7833,13.58,88,100,3.13,IT,1682993937
77,fort bragg,35.139,-79.006,16.91,43,0,5.66,US,1682993938
78,castillos,-34.1667,-53.8333,13.5,65,99,2.81,UY,1682993939
79,gallup,35.5281,-108.7426,20.91,18,20,6.69,US,1682993940
80,antsohihy,-14.8796,47.9875,21.16,93,12,0.74,MG,1682993941
81,campos novos,-27.4017,-51.225,14.1,92,28,1.2,BR,1682993866
82,ribeira grande,38.5167,-28.7,15.99,79,39,6.71,PT,1682993944
83,laojunmiao,39.8333,97.7333,14.87,13,20,0.87,CN,1682993945
84,lebu,-37.6167,-73.65,9.96,80,1,4.31,CL,1682993946
85,puerto natales,-51.7236,-72.4875,5.03,84,92,6.05,CL,1682993947
86,kem',64.9555,34.5793,-2.86,96,51,3.86,RU,1682993948
87,winnemucca,40.973,-117.7357,12.03,50,20,9.26,US,1682993949
88,fort mcmurray,56.7268,-111.381,26.77,22,0,4.12,CA,1682993951
89,kodiak,57.79,-152.4072,5.73,75,75,3.09,US,1682993953
90,nouadhibou,20.931,-17.0347,19.99,83,1,7.2,MR,1682993954
91,jatiroto,-7.8833,111.1167,27.45,77,13,0.78,ID,1682993955
92,barranca,-10.75,-77.7667,22.95,82,99,4.2,PE,1682993956
93,puerto carreno,6.189,-67.4859,29.09,62,58,2.09,CO,1682993957
94,talakan,50.3167,130.3667,17.65,28,100,6.49,RU,1682993958
95,flying fish cove,-10.4217,105.6791,27.62,77,37,6.81,CX,1682993960
96,minas de marcona,-15.2119,-75.1103,15.22,83,22,5.87,PE,1682993961
97,hede,33.7681,120.2517,22.74,30,67,9.99,CN,1682993962
98,morant bay,17.8815,-76.4093,25.95,85,99,3.85,JM,1682993963
99,tromso,69.6496,18.957,2.01,87,75,0.45,NO,1682993964
100,college,64.8569,-147.8028,13.18,39,75,3.6,US,1682993965
101,hawaiian paradise park,19.5933,-154.9731,26.13,73,75,6.17,US,1682993966
102,basco,20.4487,121.9702,26.44,85,23,6.88,PH,1682993968
103,puerto ayacucho,5.6639,-67.6236,27.4,71,56,2.29,VE,1682993969
104,bellaria-igea marina,44.1421,12.47,15.55,94,75,13.86,IT,1682993970
105,fukuecho,32.6881,128.8419,21.2,56,0,3.09,JP,1682993971
106,labrador city,52.9463,-66.9114,5.95,45,75,4.12,CA,1682993972
107,codrington,-38.2667,141.9667,15.03,75,80,6.95,AU,1682993973
108,vondrozo,-22.8167,47.2833,16.41,93,87,1.04,MG,1682993974
109,acarau,-2.8856,-40.12,25.26,86,98,3.73,BR,1682993744
110,geraldton,-28.7667,114.6,26.23,22,0,8.75,AU,1682993977
111,simanggang,1.2472,111.4528,28.99,79,20,1.54,MY,1682993978
112,wukari,7.85,9.7833,25.5,70,87,2.25,NG,1682993979
113,utrik,11.2278,169.8474,27.29,80,53,10.22,MH,1682993980
114,sarandi grande,-33.7333,-56.3333,10.14,65,78,2.87,UY,1682993981
115,steinbach,50.1667,8.5667,12.33,73,0,5.66,DE,1682993982
116,al majaridah,19.1236,41.9111,26.99,60,1,0.91,SA,1682993983
117,halifax,44.6453,-63.5724,6.94,96,100,9.39,CA,1682993765
118,cabo san lucas,22.8909,-109.9124,28.61,68,40,5.66,MX,1682993946
119,jamestown,42.097,-79.2353,3.64,92,100,4.12,US,1682993784
120,francistown,-21.17,27.5079,15.44,78,0,1.87,BW,1682993988
121,santana,-0.0583,-51.1817,26.1,94,0,1.03,BR,1682993989
122,palmwoods,-26.6833,152.9667,23.13,47,78,2.18,AU,1682993990
123,kapuskasing,49.4169,-82.4331,2.05,100,100,7.72,CA,1682993991
124,tucurui,-3.7661,-49.6725,22.57,97,100,1.24,BR,1682993992
125,ushuaia,-54.8,-68.3,2.81,87,75,7.72,AR,1682993993
126,atafu village,-8.5421,-172.5159,28.84,76,9,6.22,TK,1682993994
127,plastun,44.7561,136.2939,17.04,45,0,1.74,RU,1682993996
128,beyneu,45.3167,55.2,20.07,29,100,8.26,KZ,1682993998
129,nova sintra,14.8667,-24.7167,20.94,80,1,6.49,CV,1682993999
130,ust'-ilimsk,58.0006,102.6619,2.14,69,100,4.12,RU,1682994001
131,namibe,-15.1961,12.1522,22.38,83,13,2.3,AO,1682994002
132,yeppoon,-23.1333,150.7333,26.88,57,100,3.35,AU,1682994003
133,qaqortoq,60.7167,-46.0333,1.3,67,100,3.48,GL,1682994004
134,aguas vermelhas,-15.7472,-41.46,18.74,94,98,1.24,BR,1682994006
135,itoman,26.1247,127.6694,25.22,53,0,8.75,JP,1682994007
136,revda,56.801,59.9303,7.94,82,96,2.74,RU,1682994008
137,loikaw,19.6742,97.2094,29.18,47,91,1.65,MM,1682994009
138,remire-montjoly,4.9167,-52.2667,24.02,94,40,0.0,GF,1682994010
139,cheat lake,39.672,-79.8534,5.58,93,100,1.79,US,1682994011
140,koungheul,13.9833,-14.8,25.08,58,0,4.08,SN,1682994012
141,la mira,18.035,-102.3266,24.14,66,0,1.58,MX,1682994014
142,hamilton,39.1834,-84.5333,6.24,93,100,2.57,US,1682993804
143,yerofey pavlovich,53.9667,121.9667,9.66,60,100,3.72,RU,1682994016
144,batangafo,7.3008,18.2833,23.41,55,42,1.98,CF,1682994017
145,filadelfia,39.9523,-75.1638,12.28,74,40,3.09,US,1682993875
146,kruisfontein,-34.0033,24.7314,11.6,93,100,3.06,ZA,1682994019
147,dakhla,23.6848,-15.958,19.63,78,0,6.7,EH,1682994020
148,new norfolk,-42.7826,147.0587,15.72,67,76,1.88,AU,1682994021
149,el sauzal de rodriguez,31.9,-116.6833,14.12,69,69,4.39,MX,1682994022
150,jabor,5.921,169.6434,28.03,80,99,6.96,MH,1682994024
151,onguday,50.75,86.15,-1.1,69,100,1.07,RU,1682994025
152,hermanus,-34.4187,19.2345,11.0,76,100,1.79,ZA,1682994026
153,ed damer,17.5928,33.9592,23.97,10,35,4.58,SD,1682994027
154,ilebo,-4.3167,20.5833,21.38,96,100,0.68,CD,1682994029
155,kertih,4.5141,103.4483,29.3,73,100,0.72,MY,1682994030
156,saint-felicien,48.6501,-72.4491,6.28,93,20,2.06,CA,1682994033
157,sinop,41.7711,34.8709,4.79,76,25,2.49,TR,1682994034
158,saipan,15.1355,145.701,31.39,100,100,9.77,MP,1682994036
159,siwa oasis,29.2041,25.5195,21.12,35,3,5.16,EG,1682994037
160,bikenibeu village,1.3673,173.1241,30.98,70,40,6.17,KI,1682994038
161,susuman,62.7833,148.1667,-2.3,70,100,1.87,RU,1682994039
162,young,-32.6833,-57.6333,13.77,42,94,3.72,UY,1682994040
163,taro,-8.3862,115.28,26.03,64,74,0.65,ID,1682994041
164,sebastopol,44.6,33.5333,9.6,79,4,2.5,UA,1682993743
165,dompu,-8.5356,118.4622,29.83,67,56,1.75,ID,1682993835
166,irymple,-34.25,142.1667,20.61,59,7,1.34,AU,1682994045
167,rio de janeiro,-22.9028,-43.2075,23.98,83,0,3.09,BR,1682994000
168,saint-andre-les-vergers,48.2853,4.0521,7.02,93,0,2.57,FR,1682994047
169,kobryn,52.2138,24.3564,4.68,70,98,4.06,BY,1682994048
170,wailua homesteads,22.0669,-159.378,25.44,79,100,0.89,US,1682994049
171,chernyshevskiy,63.0128,112.4714,-0.47,86,12,2.64,RU,1682994052
172,georgetown,5.4112,100.3354,30.96,74,20,0.0,MY,1682994053
173,crane,31.3974,-102.3501,24.49,25,100,4.56,US,1682994054
174,leava,-14.3,-178.1667,28.23,76,24,10.45,WF,1682994055
175,pandhana,21.7,76.2167,26.22,50,15,3.35,IN,1682994056
176,nikol'sk,53.7189,46.0712,7.73,94,100,1.17,RU,1682994057
177,kannur,11.8675,75.3576,26.68,78,100,1.77,IN,1682994058
178,langepas,61.2544,75.2124,-4.15,73,5,2.01,RU,1682994060
179,rehoboth,-23.3167,17.0833,20.64,29,89,2.16,NA,1682994061
180,eyl,7.9803,49.8164,28.57,75,62,2.11,SO,1682994062
181,lazaro cardenas,17.9583,-102.2,24.95,66,0,1.9,MX,1682994063
182,odda,60.0691,6.5457,-3.56,97,74,1.42,NO,1682994064
183,jinxiang,27.4327,120.6062,17.07,71,100,2.85,CN,1682994065
184,karratha,-20.7377,116.8463,29.1,32,100,8.72,AU,1682994066
185,sandnessjoen,66.0217,12.6316,-2.71,71,12,2.01,NO,1682994068
186,gadzhiyevo,69.2551,33.3362,-0.43,97,99,5.31,RU,1682994069
187,isafjordur,66.0755,-23.124,0.46,77,81,2.37,IS,1682994070
188,kashgar,39.4547,75.9797,19.56,22,0,4.0,CN,1682994072
189,qarqaraly,49.4058,75.4742,0.45,49,42,6.58,KZ,1682994074
190,pucheng,27.9233,118.5333,21.96,39,13,2.18,CN,1682994075
191,isla mujeres,21.2311,-86.731,25.09,65,100,4.65,MX,1682994077
192,miranda do corvo,40.0932,-8.3326,14.25,74,100,1.3,PT,1682994078
193,khadyzhensk,44.4256,39.5319,9.32,88,99,0.76,RU,1682994079
194,serdar,38.9764,56.2757,19.88,66,100,6.69,TM,1682994080
195,st. john's,47.5649,-52.7093,2.21,92,100,5.66,CA,1682994036
196,chibougamau,49.9168,-74.3659,4.79,87,100,7.2,CA,1682993841
197,tura,25.5198,90.2201,23.74,77,23,1.0,IN,1682994084
198,enoch,37.7733,-113.0244,21.14,22,0,8.75,US,1682994014
199,kimbe,-5.5502,150.1429,32.54,62,44,1.92,PG,1682994088
200,khamis mushait,18.3064,42.7292,15.34,72,0,0.0,SA,1682994089
201,barah,13.7,30.3667,25.02,13,55,5.33,SD,1682994090
202,fale old settlement,-9.3852,-171.2468,28.86,73,4,6.0,TK,1682994091
203,porto velho,-8.7619,-63.9039,27.03,89,0,1.54,BR,1682994093
204,bayanhongor,46.7167,100.1167,3.32,27,100,3.75,MN,1682994094
205,ziro,27.6333,93.8333,11.41,100,100,0.5,IN,1682994096
206,kingston,17.997,-76.7936,25.69,93,86,0.89,JM,1682994001
207,kargasok,59.0556,80.8572,0.13,84,100,4.79,RU,1682994098
208,naze,28.3667,129.4833,22.51,56,0,6.27,JP,1682994099
209,motygino,58.1831,94.7592,3.06,74,17,2.1,RU,1682994075
210,ungsang-nodongjagu,42.3578,130.4622,13.93,50,48,4.38,KP,1682994101
211,kushiro,42.975,144.3747,11.53,50,20,6.17,JP,1682994102
212,lerwick,60.1545,-1.1494,4.0,72,96,7.29,GB,1682994103
213,alaghsas,17.0187,8.0168,28.42,11,7,3.52,NE,1682994105
214,afaahiti,-17.75,-149.2833,27.93,84,100,9.73,PF,1682994106
215,ironwood,46.4547,-90.171,3.79,80,100,5.66,US,1682994107
216,fortuna,40.5982,-124.1573,11.48,82,100,2.24,US,1682994108
217,kapa'a,22.0752,-159.319,26.18,78,100,0.89,US,1682994109
218,antibes,43.5624,7.1278,14.52,87,75,4.12,FR,1682994110
219,foz,43.5692,-7.2544,12.14,94,98,2.38,ES,1682994111
220,andovoranto,-18.95,49.1,21.65,88,38,1.67,MG,1682994112
221,riverton,40.5219,-111.9391,27.58,18,0,4.12,US,1682993934
222,saudarkrokur,65.7461,-19.6394,0.49,83,25,0.29,IS,1682994115
223,shakawe,-18.3667,21.85,15.76,48,0,1.48,BW,1682994116
224,yelizovo,53.1873,158.3805,7.08,65,75,5.0,RU,1682994117
225,inhambane,-23.865,35.3833,22.09,81,57,2.17,MZ,1682994118
226,isangel,-19.55,169.2667,29.12,73,65,4.88,VU,1682994119
227,saint-philippe,-21.3585,55.7679,22.77,81,34,1.08,RE,1682994120
228,northam,51.0333,-4.2167,9.1,93,50,1.16,GB,1682994121
229,yokadouma,3.5167,15.05,20.24,99,100,1.18,CM,1682994123
230,kouroussa,10.65,-9.8833,25.57,62,78,2.44,GN,1682994124
231,tchibanga,-2.85,11.0333,21.81,97,100,0.56,GA,1682994125
232,vilyuchinsk,52.9306,158.4028,7.15,91,91,1.88,RU,1682994126
233,agadez,19.75,10.25,28.32,14,1,4.32,NE,1682994127
234,port elizabeth,-33.918,25.5701,14.06,96,0,2.57,ZA,1682994128
235,camana,-16.6228,-72.7111,20.06,82,2,2.64,PE,1682994129
236,ambon,-3.6954,128.1814,30.08,88,40,2.06,ID,1682994130
237,al bawiti,28.3492,28.8659,17.06,46,0,3.22,EG,1682994132
238,dapa,9.7594,126.0531,25.5,93,100,2.12,PH,1682994133
239,askoy,60.4092,5.226,3.75,93,75,1.54,NO,1682994134
240,alegrete,-29.7831,-55.7919,14.84,95,99,6.88,BR,1682994135
241,sisimiut,66.9395,-53.6735,-2.18,80,46,2.88,GL,1682994136
242,freetown,8.484,-13.2299,26.84,78,75,4.63,SL,1682994137
243,polyarnyy,69.1989,33.4478,-0.11,98,99,5.14,RU,1682994138
244,marsa alam,25.0757,34.8918,22.63,43,0,5.11,EG,1682994140
245,bathsheba,13.2167,-59.5167,27.34,78,40,4.12,BB,1682994141
246,quellon,-43.1167,-73.6167,7.14,93,20,0.51,CL,1682994142
247,illizi,26.4833,8.4667,26.89,19,72,2.86,DZ,1682994143
248,mineros,-17.1167,-63.2333,23.4,94,88,1.43,BO,1682994144
249,wenchang,30.904,118.4887,26.1,34,3,2.04,CN,1682994145
250,merizo village,13.2658,144.6691,31.31,83,89,8.81,GU,1682994146
251,lihue,21.9789,-159.3672,25.77,78,100,0.0,US,1682994148
252,okhotsk,59.3833,143.3,1.34,70,89,3.31,RU,1682994149
253,pointe aux piments,-20.0628,57.5131,24.18,81,5,2.2,MU,1682994150
254,nelson bay,-32.7167,152.15,22.22,56,0,5.81,AU,1682994151
255,bandar labuan,5.2888,115.2692,30.2,70,20,1.03,MY,1682994152
256,serhetabat,35.2799,62.3438,19.9,33,13,0.4,TM,1682994153
257,khandyga,62.6667,135.6,1.71,96,100,1.52,RU,1682994154
258,fuyuan,46.4333,127.0833,19.23,30,100,10.33,CN,1682994156
259,petropavlovsk-kamchatsky,53.0452,158.6483,6.33,65,75,5.0,RU,1682994157
260,bahia blanca,-38.7196,-62.2724,10.46,50,0,1.34,AR,1682994158
261,ola,59.5833,151.2833,5.08,71,100,0.9,RU,1682994159
262,faya-largeau,17.9257,19.1043,28.11,11,0,4.77,TD,1682994160
263,ust-nera,64.5667,143.2,-1.04,81,100,1.78,RU,1682994161
264,santa ana,33.7456,-117.8678,16.89,67,75,6.17,US,1682994162
265,palikir - national government center,6.9248,158.1611,30.41,74,100,7.2,FM,1682994163
266,constantia,44.1833,28.65,8.38,82,1,3.34,RO,1682994165
267,talnakh,69.4865,88.3972,-11.55,77,35,1.48,RU,1682994166
268,cururupu,-1.8283,-44.8683,23.12,98,100,0.87,BR,1682993874
269,shengli,37.4564,118.4856,24.43,28,100,7.63,CN,1682994168
270,wattegama,6.7989,81.4808,25.67,83,100,0.65,LK,1682994169
271,toamasina,-18.1667,49.3833,21.0,94,40,1.03,MG,1682994170
272,tsiombe,-25.3,45.4833,16.39,69,11,1.18,MG,1682994172
273,otradnaya,44.3933,41.5206,7.98,96,100,1.49,RU,1682994173
274,weno,7.4515,151.8468,30.97,79,100,2.57,FM,1682994174
275,punta cardon,11.6581,-70.215,26.69,85,99,13.5,VE,1682994175
276,cam ranh,11.9214,109.1591,30.98,58,20,4.63,VN,1682994176
277,zhangye,38.9342,100.4517,19.33,16,100,0.63,CN,1682994177
278,svetlyy,54.675,20.1347,6.65,73,100,5.69,RU,1682994178
279,port alfred,-33.5906,26.891,16.82,87,78,4.84,ZA,1682994179
280,oranjemund,-28.55,16.4333,11.39,93,8,2.49,NA,1682994181
281,karungdong,5.8844,121.263,29.69,70,22,1.58,PH,1682994183
282,saint-joseph,-21.3667,55.6167,22.21,81,16,0.65,RE,1682994184
283,santa ana de yacuma,-13.75,-65.4333,27.05,72,77,1.98,BO,1682994185
284,nowshahr,36.649,51.496,16.67,94,100,5.44,IR,1682994186
285,upington,-28.4478,21.2561,11.26,32,0,0.95,ZA,1682994188
286,greymouth,-42.4667,171.2,16.37,97,100,6.2,NZ,1682994166
287,aasiaat,68.7098,-52.8699,-9.74,86,10,2.16,GL,1682994191
288,wulingyuan,29.3494,110.5441,16.27,95,100,1.07,CN,1682994192
289,atherton,53.5237,-2.4935,9.75,86,100,2.76,GB,1682994193
290,kuta,-8.7233,115.1723,30.0,74,20,3.6,ID,1682994194
291,vadso,70.0744,29.7487,1.49,86,20,7.72,NO,1682994195
292,durban,-29.8579,31.0292,21.51,86,11,4.33,ZA,1682993924
293,ouadda,8.0777,22.4007,21.65,78,88,1.35,CF,1682994198
294,contamana,-7.3333,-75.0167,24.65,85,73,1.17,PE,1682994199
295,minas novas,-17.2186,-42.5903,18.01,95,2,0.75,BR,1682994092
296,lichuan,30.3,108.85,12.16,96,100,1.43,CN,1682994201
297,tunduma,-9.3,32.7667,13.37,95,97,2.53,TZ,1682994202
298,viljandi,58.3639,25.59,5.33,69,100,4.92,EE,1682994203
299,sompeta,18.9333,84.6,26.4,67,72,2.66,IN,1682994206
300,spas-demensk,54.4122,34.0226,1.47,71,11,1.74,RU,1682994207
301,sitka,57.0531,-135.33,7.94,81,100,4.12,US,1682994208
302,la'ie,21.6477,-157.9253,27.98,61,29,1.79,US,1682994209
303,belmonte,-15.8631,-38.8828,24.23,87,99,1.45,BR,1682994210
304,san patricio,28.017,-97.5169,24.35,78,60,5.7,US,1682994211
305,nelson,-41.2833,173.2833,19.05,92,95,1.79,NZ,1682994212
306,kourou,5.1552,-52.6478,24.03,84,40,4.04,GF,1682994213
307,oudtshoorn,-33.5907,22.2014,11.2,88,100,0.39,ZA,1682994215
308,kaifeng,34.7911,114.3483,24.16,37,100,5.45,CN,1682994216
309,vwawa,-9.1167,32.9333,14.8,94,100,1.81,TZ,1682994217
310,mingora,34.7758,72.3625,14.8,90,100,1.29,PK,1682994218
311,tokar,18.4254,37.729,23.93,69,8,3.09,SD,1682994219
312,uturoa,-16.7333,-151.4333,27.71,78,100,7.24,PF,1682994220
313,igarka,67.4667,86.5833,-6.32,81,16,2.49,RU,1682994221
314,baneh,35.9975,45.8853,3.92,74,26,1.35,IR,1682994223
315,tenenkou,14.4572,-4.9169,34.27,24,69,4.64,ML,1682994224
316,dryden,49.7833,-92.7503,5.16,36,0,3.6,CA,1682994225
317,mahdia,35.5047,11.0622,17.97,69,60,6.45,TN,1682994226
318,keflavik,64.0049,-22.5624,4.92,81,75,3.6,IS,1682994227
319,verkhniy tagil,57.3733,59.9556,7.23,78,83,2.56,RU,1682994228
320,opuwo,-18.0607,13.84,20.88,41,73,1.35,NA,1682994229
321,santa cruz,-17.8,-63.1667,22.7,94,75,1.03,BO,1682994230
322,dhulikhel,27.6189,85.5529,14.1,67,100,0.06,NP,1682994231
323,port saint john's,-31.6229,29.5448,18.01,78,10,3.19,ZA,1682994233
324,bela,25.9333,81.9833,25.29,65,36,4.71,IN,1682993934
325,masjed soleyman,31.9364,49.3039,20.71,26,0,0.42,IR,1682994235
326,dunedin,-45.8742,170.5036,14.89,80,90,2.68,NZ,1682994236
327,puerto leguizamo,-0.1934,-74.7819,23.41,95,90,0.2,CO,1682994237
328,arraial do cabo,-22.9661,-42.0278,23.29,87,0,4.33,BR,1682994238
329,allegan,42.5292,-85.8553,4.9,92,100,7.15,US,1682994239
330,zubova polyana,54.0771,42.8372,6.36,93,100,3.45,RU,1682994241
331,port lincoln,-34.7333,135.8667,18.12,59,46,6.72,AU,1682994242
332,nova xavantina,-14.6667,-52.35,23.02,78,3,1.14,BR,1682994243
333,okha,53.5739,142.9478,0.89,95,100,2.54,RU,1682994244
334,mount pearl,47.5166,-52.7813,1.75,92,100,5.66,CA,1682994174
335,haiku-pauwela,20.9219,-156.3051,28.01,59,40,4.12,US,1682994246
336,tralee,52.2704,-9.7026,8.93,91,97,1.85,IE,1682994084
337,gebeit,21.0667,36.3167,21.09,27,97,1.72,SD,1682994249
338,limassol,34.675,33.0333,15.04,63,0,2.06,CY,1682994250
339,tual,-5.6667,132.75,27.33,82,100,5.77,ID,1682994251
340,darab,28.7519,54.5444,19.66,26,0,2.07,IR,1682994252
341,slatina,44.4333,24.3667,11.36,72,11,5.66,RO,1682994253
342,ust'-barguzin,53.45,108.9833,2.24,65,100,2.83,RU,1682994255
343,trairi,-3.2778,-39.2689,24.52,91,100,2.38,BR,1682994021
344,westport,41.1415,-73.3579,12.83,83,75,6.69,US,1682994258
345,kalevala,65.2,31.1667,-0.64,87,100,3.72,RU,1682994259
346,santa rosa,14.3122,121.1114,33.99,59,88,6.45,PH,1682994260
347,fort irwin,35.2627,-116.6848,17.9,39,0,9.77,US,1682994233
348,betio village,1.358,172.9211,31.02,77,20,6.19,KI,1682994262
349,williston,48.147,-103.618,12.8,38,86,0.89,US,1682994263
350,kavieng,-2.5744,150.7967,29.46,72,37,5.79,PG,1682994264
351,moranbah,-22.0016,148.0466,26.99,49,78,3.51,AU,1682994267
352,bayville,40.9106,-73.5621,14.01,69,72,5.51,US,1682994268
353,kenora,49.8167,-94.4337,7.54,33,20,6.17,CA,1682994270
354,mejit,10.2753,170.8646,27.24,81,93,9.79,MH,1682994271
355,glasgow,55.8652,-4.2576,7.9,87,100,4.63,GB,1682994272
356,villa gesell,-37.2639,-56.973,7.25,45,0,3.8,AR,1682994273
357,olutanga,7.3106,122.8464,28.39,74,67,1.26,PH,1682994274
358,nar'yan-mar,67.6713,53.087,1.66,100,100,7.28,RU,1682994276
359,arkhangel'sk,64.5401,40.5433,2.17,83,100,3.77,RU,1682994277
360,milan,45.4643,9.1895,12.82,96,75,2.06,IT,1682994179
361,midvagur,62.0511,-7.1939,3.46,56,75,7.2,FO,1682994279
362,nizhneangarsk,55.7833,109.55,1.06,58,97,2.61,RU,1682994280
363,muroto-misakicho,33.2833,134.15,16.75,45,0,2.41,JP,1682994281
364,ahmadpur east,29.1431,71.2598,27.6,46,87,3.45,PK,1682994282
365,corner brook,48.9667,-57.9484,1.09,89,100,2.94,CA,1682994283
366,san luis,-33.295,-66.3356,11.35,53,51,2.09,AR,1682994285
367,metkovic,43.0542,17.6483,14.26,94,100,3.21,HR,1682994286
368,coahuayana de hidalgo,18.7,-103.6583,23.13,68,0,1.2,MX,1682994287
369,ostersund,63.1792,14.6357,-1.75,93,36,4.63,SE,1682994288
370,oasis,33.4659,-116.0989,23.02,25,0,9.26,US,1682994289
371,kyabe,9.4515,18.9449,28.37,47,99,1.43,TD,1682994290
372,tisul',55.7611,88.3122,0.83,84,100,3.21,RU,1682994074
373,argo,37.6333,22.7333,13.21,82,100,1.02,GR,1682994292
374,miahuatlan,18.5667,-97.4333,21.3,30,46,1.71,MX,1682994294
375,edmundston,47.3737,-68.3251,7.63,93,100,6.17,CA,1682994295
376,smithers,54.7804,-127.1743,17.18,39,20,4.12,CA,1682994078
377,williams lake,52.1415,-122.1445,16.7,61,100,3.6,CA,1682994297
378,aleksandrov gay,50.147,48.5704,13.44,84,100,4.58,RU,1682994298
379,machico,32.7,-16.7667,21.18,42,40,2.06,PT,1682994299
380,apiai,-24.5094,-48.8425,13.7,96,1,0.64,BR,1682994300
381,neiafu,-18.65,-173.9833,27.38,61,40,6.17,TO,1682994301
382,extrema,-22.8547,-46.3183,14.42,88,1,1.28,BR,1682994304
383,myronivka,49.6601,30.9823,4.02,66,6,1.2,UA,1682994305
384,maragogi,-9.0122,-35.2225,25.41,81,37,1.75,BR,1682994306
385,walvis bay,-22.9575,14.5053,15.27,76,1,4.09,NA,1682994307
386,ancud,-41.8697,-73.8203,8.9,93,30,0.95,CL,1682994308
387,lompoc,34.6391,-120.4579,13.34,78,40,4.63,US,1682994309
388,changyon,38.2508,125.0961,17.51,32,100,6.92,KP,1682994310
389,palapye,-22.546,27.1251,15.52,81,8,1.88,BW,1682994312
390,gympie,-26.1898,152.665,24.68,20,84,2.33,AU,1682994313
391,rice lake,45.5061,-91.7382,6.82,75,100,9.26,US,1682994314
392,soller,39.7662,2.7152,16.03,82,33,1.34,ES,1682994316
393,taltal,-25.4,-70.4833,17.48,81,6,1.73,CL,1682994317
394,severoural'sk,60.1533,59.952,5.2,72,100,3.01,RU,1682994318
395,el-tor,28.2364,33.6254,19.08,82,0,8.75,EG,1682994319
396,muang xay,20.7,101.9833,30.73,46,73,0.76,LA,1682994321
397,pedregulho,-20.2569,-47.4767,14.28,83,0,1.35,BR,1682994322
398,korsakov,46.6328,142.7813,8.91,67,29,4.7,RU,1682994323
399,nemuro,43.3236,145.575,4.73,71,0,3.59,JP,1682994324
400,bubaque,11.2833,-15.8333,25.58,81,7,5.9,GW,1682994325
401,banda aceh,5.5577,95.3222,29.17,72,86,1.88,ID,1682994326
402,san agustin de valle fertil,-30.6335,-67.4682,10.55,47,0,0.34,AR,1682994327
403,sao paulo de olivenca,-3.3783,-68.8725,23.42,98,83,1.18,BR,1682994328
404,butte,39.6499,-121.5677,13.99,59,99,1.46,US,1682994330
405,nova vicosa,-17.8919,-39.3719,23.94,88,47,2.59,BR,1682994331
406,kavaratti,10.5669,72.642,29.08,69,92,5.3,IN,1682994096
407,karmaskaly,54.3709,56.1837,11.95,64,5,3.65,RU,1682994333
408,lospalos,-8.5186,127.0025,26.64,71,37,4.24,TL,1682994334
409,flin flon,54.7682,-101.865,6.07,66,100,2.25,CA,1682994335
410,taskopru,41.5098,34.2141,3.19,83,4,1.24,TR,1682994336
411,axim,4.8699,-2.2405,25.84,86,82,2.22,GH,1682994337
412,jagdalpur,19.0667,82.0333,24.04,65,9,1.72,IN,1682994339
413,malango,-2.9627,119.9001,25.98,72,89,1.14,ID,1682994340
414,happy valley-goose bay,53.3168,-60.3315,3.17,70,75,2.06,CA,1682994341
415,naama,33.2667,-0.3167,13.63,53,3,4.85,DZ,1682994342
416,kristinestad,62.2743,21.376,1.72,78,100,2.69,FI,1682994343
417,carnarvon,-24.8667,113.6333,26.73,46,0,3.43,AU,1682994344
418,ban na,17.0306,99.7525,34.94,42,53,1.98,TH,1682994346
419,sukabumi,-6.9181,106.9267,26.57,75,52,0.77,ID,1682994347
420,chabahar,25.2919,60.643,26.89,74,0,0.9,IR,1682994348
421,pangkalpinang,-2.1333,106.1333,29.93,64,46,1.23,ID,1682994349
422,cacador,-26.7753,-51.015,13.66,90,7,0.93,BR,1682994350
423,priargunsk,50.3691,119.1012,22.01,21,99,9.29,RU,1682994351
424,cidreira,-30.1811,-50.2056,21.04,88,100,3.52,BR,1682994352
425,chuguyevka,44.1653,133.8633,17.28,41,2,3.7,RU,1682994353
426,howrah,22.5892,88.3103,28.0,69,40,0.0,IN,1682994355
427,gargalianoi,37.0667,21.6333,12.97,76,97,2.45,GR,1682994357
428,soe,-9.8607,124.284,24.22,72,100,2.91,ID,1682994358
429,yeniseysk,58.4497,92.1703,1.63,78,64,2.58,RU,1682994359
430,businga,3.3333,20.8833,21.33,91,91,0.8,CD,1682994360
431,orgiva,36.9026,-3.4238,18.59,48,42,0.45,ES,1682994361
432,kostroma,57.7708,40.9344,1.4,92,36,2.59,RU,1682994362
433,maues,-3.3836,-57.7186,23.95,97,100,0.46,BR,1682994364
434,peniche,39.3558,-9.3811,14.6,85,100,4.59,PT,1682994365
435,pindushi,62.9152,34.58,-0.03,91,29,2.05,RU,1682994366
436,nhamunda,-2.1861,-56.7131,24.03,96,100,0.73,BR,1682994367
437,genhe,50.7833,121.5167,18.02,35,100,4.91,CN,1682994368
438,jhang sadr,31.2715,72.3284,21.59,72,100,4.05,PK,1682994369
439,miyako,39.6367,141.9525,12.54,55,95,4.22,JP,1682994370
440,san luis de la loma,17.2706,-100.8939,26.02,70,0,1.83,MX,1682994371
441,kerikeri,-35.2268,173.9474,22.73,83,100,0.89,NZ,1682994373
442,vilyuysk,63.7553,121.6247,1.06,99,100,3.85,RU,1682994374
443,queenstown,-31.8976,26.8753,7.57,65,71,0.88,ZA,1682994328
444,ianca,45.1333,27.45,8.64,63,0,2.55,RO,1682994376
445,makoua,0.0069,15.6333,21.84,97,97,1.06,CG,1682994377
446,sangmelima,2.9333,11.9833,20.01,98,100,0.44,CM,1682994378
447,beloyarskiy,63.7119,66.6722,0.06,91,100,3.72,RU,1682994171
448,bontang,0.1333,117.5,28.34,77,99,0.4,ID,1682994380
449,timbuktu,16.7735,-3.0074,33.01,19,77,2.69,ML,1682994382
450,paka,4.6374,103.4368,29.04,74,100,0.59,MY,1682994383
451,kangding,30.0513,101.9603,15.56,67,99,0.72,CN,1682994384
452,iraucuba,-3.7461,-39.7833,21.71,95,99,0.74,BR,1682994385
453,iquitos,-3.7481,-73.2472,25.02,88,75,1.03,PE,1682994386
454,cadillac,44.2519,-85.4012,-0.05,100,100,6.69,US,1682994387
455,acton,51.509,-0.2762,11.0,89,100,3.6,GB,1682994388
456,praia da vitoria,38.7333,-27.0667,16.14,82,20,5.73,PT,1682994390
457,antonio enes,-16.2325,39.9086,23.96,77,100,3.42,MZ,1682994391
458,hampton bays,40.869,-72.5176,12.17,86,20,4.12,US,1682994392
459,chonchi,-42.6128,-73.8092,9.56,98,90,0.34,CL,1682994393
460,lensk,60.7253,114.9278,4.26,59,17,0.28,RU,1682994394
461,boguchany,58.3814,97.4531,3.46,74,44,3.06,RU,1682994395
462,port shepstone,-30.7414,30.455,19.88,80,81,4.33,ZA,1682994396
463,beledweyne,4.7358,45.2036,26.78,65,94,3.11,SO,1682994398
464,arkalyk,50.2486,66.9114,7.48,46,9,4.98,KZ,1682994399
465,tolanaro,-25.0319,46.9987,19.04,88,40,2.06,MG,1682994400
466,nadi,-17.8,177.4167,32.0,55,40,4.63,FJ,1682994401
467,abepura,-2.6333,140.5833,26.45,89,40,3.09,ID,1682994402
468,kosh-agach,50.0,88.6667,-3.35,51,98,2.44,RU,1682994403
469,portales,34.1862,-103.3344,21.17,32,100,4.9,US,1682994404
470,morehead city,34.7229,-76.726,18.89,51,40,4.12,US,1682994405
471,kalabo,-14.97,22.6814,14.27,47,62,2.43,ZM,1682994407
472,nueve de julio,-35.4444,-60.8831,7.76,54,0,2.19,AR,1682994408
473,donggang,28.9365,114.2259,24.57,60,90,1.35,CN,1682994409
474,hauterive,46.0901,3.4459,9.42,98,56,0.9,FR,1682994410
475,praia,14.9215,-23.5087,22.3,83,0,1.54,CV,1682994411
476,taco pozo,-25.6167,-63.2833,13.44,60,100,2.96,AR,1682994412
477,wanning,18.8003,110.3967,26.59,85,76,3.71,CN,1682994413
478,taupo,-38.6833,176.0833,16.61,95,100,2.08,NZ,1682994415
479,sao felix do xingu,-6.6447,-51.995,22.44,98,100,0.46,BR,1682994416
480,saurimo,-9.6608,20.3916,19.78,67,99,0.4,AO,1682994417
481,tarko-sale,64.9225,77.785,-7.37,67,13,1.66,RU,1682994418
482,hafar al-batin,28.4328,45.9708,20.32,49,0,6.17,SA,1682994419
483,aljezur,37.3191,-8.8033,17.68,55,100,3.08,PT,1682994420
484,tymovskoye,50.8456,142.655,8.88,55,100,3.81,RU,1682994421
485,dolinsk,47.35,142.8,10.35,49,94,4.92,RU,1682994423
486,bollnas,61.3482,16.3946,0.04,97,100,1.7,SE,1682994424
487,forster,-32.1667,152.5167,21.88,52,17,2.24,AU,1682994425
488,cockburn town,21.4612,-71.1419,26.88,79,95,1.95,TC,1682994426
489,n'zeto,-7.2312,12.8666,25.27,90,78,1.87,AO,1682994427
490,colonia,50.9333,6.95,11.09,86,75,3.09,DE,1682994428
491,songling,31.1933,120.7176,22.51,39,0,8.79,CN,1682994429
492,baiti,13.745,-14.7482,25.56,57,3,4.51,SN,1682994430
493,lypova dolyna,50.5643,33.7979,2.74,69,0,3.02,UA,1682994433
494,hermosillo,29.0667,-110.9667,29.95,25,40,3.6,MX,1682994434
495,kalmunai,7.4167,81.8167,26.7,83,100,1.95,LK,1682994435
496,ulanhot,46.0833,122.0833,20.25,30,100,11.29,CN,1682994436
497,kismayo,-0.3582,42.5454,26.19,80,99,4.64,SO,1682994437
498,korkino,54.8913,61.3969,7.91,43,100,3.78,RU,1682994438
499,la passe,45.5549,-0.8967,10.55,93,11,2.82,FR,1682994440
500,cooper's town,26.8667,-77.5167,24.36,65,6,4.47,BS,1682994442
501,vernon,50.2581,-119.2691,22.39,48,95,7.15,CA,1682994314
502,kota tinggi,1.7381,103.8999,32.02,69,89,2.05,MY,1682994444
503,kotido,2.9806,34.1331,18.23,94,95,1.24,UG,1682994445
504,ebon,4.582,168.6964,28.15,80,100,7.27,MH,1682994446
505,severo-yeniseyskiy,60.3725,93.0408,-1.71,87,100,3.51,RU,1682994447
506,shahpur,16.7,76.8333,25.58,74,60,5.41,IN,1682994449
507,spring creek,40.7266,-115.5859,21.83,26,58,10.47,US,1682994334
508,hailar,49.2,119.7,19.81,40,100,11.3,CN,1682994451
509,pisco,-13.7,-76.2167,21.68,78,0,6.17,PE,1682994452
510,brookings,44.3114,-96.7984,6.72,56,0,6.17,US,1682994431
511,champerico,14.3,-91.9167,28.72,71,100,1.35,GT,1682994454
512,vegachi,6.7614,-74.7947,20.63,96,93,1.27,CO,1682994455
513,dzhalagash,45.0833,64.6667,16.56,32,0,7.38,KZ,1682994456
514,el playon,7.4713,-73.2031,25.15,92,46,2.81,CO,1682994458
515,enewetak,11.3474,162.3373,27.27,83,62,9.99,MH,1682994459
516,hadibu,12.65,54.0333,27.84,79,99,1.42,YE,1682994460
517,sungailiat,-1.85,106.1333,29.33,67,34,1.48,ID,1682994461
518,ilheus,-14.7889,-39.0494,24.9,100,75,1.54,BR,1682994184
519,guerrero negro,27.9769,-114.0611,15.62,72,0,7.65,MX,1682994463
520,santa fe,-31.6333,-60.7,17.23,48,93,3.58,AR,1682994464
521,fuglafjordur,62.244,-6.814,3.26,76,98,6.99,FO,1682994465
522,hobyo,5.3505,48.5268,28.95,71,83,6.57,SO,1682994467
523,bamboo flat,11.7,92.7167,29.91,70,77,3.23,IN,1682994469
524,aras-asan,8.8908,126.3033,25.32,92,100,4.82,PH,1682994470
525,darwin,-12.4611,130.8418,31.61,46,0,6.71,AU,1682994426
526,socorro,31.6546,-106.3033,29.56,16,100,7.2,US,1682994472
527,uige,-7.6087,15.0613,18.47,83,75,0.94,AO,1682994473
528,kamyanyets,52.4001,23.81,4.04,66,100,4.22,BY,1682994474
529,wodonga,-36.1167,146.8833,16.65,100,99,1.22,AU,1682994476
530,kiunga,-6.1219,141.2906,30.39,68,100,1.24,PG,1682994477
531,katsuura,35.1333,140.3,17.31,40,0,3.47,JP,1682994184
532,pirallahi,40.4723,50.333,15.08,81,100,9.64,AZ,1682994479
533,buka,40.8108,69.1986,16.34,43,0,3.65,UZ,1682994480
534,swift current,50.2834,-107.8014,16.45,27,0,6.17,CA,1682994481
535,ambovombe,-25.1667,46.0833,17.57,65,7,2.29,MG,1682994482
536,andorra,42.5,1.5,5.8,87,18,3.9,AD,1682994484
537,nizhneudinsk,54.9076,99.0276,3.29,52,98,3.1,RU,1682994485
538,dauphin,51.1494,-100.0502,7.08,45,0,1.03,CA,1682994486
539,mugia,43.1041,-9.2179,12.17,70,100,0.93,ES,1682994487
540,manokwari,-0.8667,134.0833,24.15,93,100,3.61,ID,1682994488
541,rio grande,-32.035,-52.0986,15.26,91,100,4.38,BR,1682994489
542,arno,60.1167,18.6333,2.66,98,100,5.22,SE,1682994490
543,mulayjah,27.271,48.4242,23.25,25,0,6.5,SA,1682994492
544,hazard,37.2495,-83.1932,12.83,76,88,5.88,US,1682994494
545,yashkul',46.1711,45.3435,12.38,71,100,5.86,RU,1682994495
546,sao joao dos inhamuns,-6.0,-40.2833,21.11,92,72,1.77,BR,1682994496
547,brokopondo,4.75,-55.1667,24.31,87,25,3.56,SR,1682994497
548,priozersk,61.0393,30.1291,5.53,80,100,0.89,RU,1682994498
549,kochubey,44.3861,46.5825,14.36,69,100,6.71,RU,1682994499
550,kenai,60.5544,-151.2583,8.05,49,100,4.12,US,1682994500
551,three points,32.0767,-111.3137,27.42,14,0,5.66,US,1682994502
552,kununurra,-15.7667,128.7333,28.99,37,94,3.6,AU,1682994504
553,usinsk,65.9939,57.5281,3.72,89,100,10.46,RU,1682994505
554,mount pleasant,32.7941,-79.8626,19.0,47,0,0.45,US,1682994507
555,ad dabbah,18.05,30.95,22.87,12,2,4.27,SD,1682994508
556,puerto san jose,13.9256,-90.8244,28.93,73,100,1.92,GT,1682994509
557,mar del plata,-38.0023,-57.5575,10.53,61,0,2.06,AR,1682994511
558,qujing,25.4833,103.7833,22.35,43,72,8.57,CN,1682994512
559,kuanda,56.3161,116.0806,2.49,59,100,2.86,RU,1682994513
560,tahe,52.3333,124.7333,14.83,30,100,1.21,CN,1682994514
561,kadhan,24.481,68.9859,26.73,66,0,5.02,PK,1682994515
562,malvan,16.0667,73.4667,25.97,68,11,2.83,IN,1682994516
563,point pedro,9.8167,80.2333,25.83,90,100,5.28,LK,1682994517
564,colchani,-20.3,-66.9333,9.56,24,0,3.38,BO,1682994518
565,nuku'alofa,-21.1333,-175.2,27.19,69,20,8.75,TO,1682994520
566,saint-francois,46.4154,3.9054,8.69,93,0,2.57,FR,1682994521
567,tangalle,6.024,80.7911,26.09,84,100,3.16,LK,1682994522
568,vorgashor,67.5833,63.95,-1.29,85,100,9.87,RU,1682994523
569,laguna,38.421,-121.4238,14.31,70,100,5.14,US,1682994524
570,labytnangi,66.6572,66.4183,-3.32,97,100,3.55,RU,1682994525
571,nagqu,31.5,92.0,-1.92,89,100,1.93,CN,1682994526
572,el granada,37.5027,-122.4694,12.75,81,100,10.29,US,1682994348
573,noshiro,40.2039,140.0242,13.46,67,65,6.31,JP,1682994529
574,papao,-17.75,-149.55,28.82,82,100,10.33,PF,1682994530
575,belalcazar,2.6547,-75.9928,14.42,97,81,1.45,CO,1682994531
576,lagunas,-5.2269,-75.6753,23.88,96,100,0.62,PE,1682994532
577,ukhta,63.5671,53.6835,4.17,100,100,5.38,RU,1682994533
578,shihezi,44.3,86.0333,7.3,52,99,3.28,CN,1682994534
579,fuengirola,36.54,-4.6247,18.8,88,20,1.54,ES,1682994535
